,City,Cloudiness,Country,Date,Humidity,Latitude,Longitude,Max Temp,Wind Speed
0,Cape Town,75,ZA,1563589869,81,-33.93,18.42,50.0,11.41
1,Luderitz,0,NA,1563590122,77,-26.65,15.16,56.23,25.93
2,Saint-Philippe,1,CA,1563590122,74,45.36,-73.48,82.4,17.22
3,Padang,72,ID,1563590033,79,-0.92,100.36,79.99,6.53
4,Khilok,100,RU,1563590123,64,51.36,110.46,68.47,6.2
5,Tautira,20,PF,1563590123,57,-17.73,-149.15,80.6,6.93
6,Jhargram,1,IN,1563590123,65,22.45,86.99,87.01,5.97
7,Punta Arenas,0,CL,1563590124,86,-53.16,-70.91,33.8,10.29
8,Barrow,99,AR,1563590124,47,-38.31,-60.23,51.01,14.16
9,Dikson,89,RU,1563589982,80,73.51,80.55,41.11,19.89
10,Hermanus,2,ZA,1563590125,79,-34.42,19.24,46.0,4.0
11,Garowe,35,SO,1563590125,57,8.41,48.48,75.13,27.94
12,Hithadhoo,100,MV,1563590126,77,-0.6,73.08,82.69,16.67
13,Rikitea,47,PF,1563590126,56,-23.12,-134.97,66.13,10.94
14,Hilo,75,US,1563590126,65,19.71,-155.08,82.4,11.41
15,Avarua,29,CK,1563590127,78,-21.21,-159.78,75.2,5.82
16,Emba,0,CY,1563590127,83,34.81,32.42,73.4,5.82
17,Yinchuan,0,CN,1563590127,26,38.48,106.21,84.67,5.06
18,Khatanga,60,RU,1563590128,35,71.98,102.47,76.03,10.58
19,Bahia Blanca,100,AR,1563590128,38,-38.72,-62.27,52.45,13.33
20,Miles City,75,US,1563590128,46,46.41,-105.84,73.4,5.82
21,Ulaanbaatar,0,MN,1563590096,63,47.92,106.92,66.2,4.47
22,Bubaque,72,GW,1563590129,80,11.28,-15.83,78.37,12.97
23,Sola,8,TZ,1563590130,57,-3.17,33.8,64.15,5.39
24,Bredasdorp,54,ZA,1563590130,81,-34.53,20.04,48.2,4.7
25,Ahipara,16,NZ,1563590131,76,-35.17,173.16,57.67,16.49
26,Atuona,76,PF,1563590131,63,-9.8,-139.03,80.71,5.5
27,Naze,98,NG,1563590131,98,5.43,7.07,71.71,3.49
28,Port Blair,40,IN,1563590132,94,11.67,92.75,78.8,2.24
29,Caravelas,0,BR,1563590132,72,-17.73,-39.27,70.99,11.77
30,Urdoma,100,RU,1563590133,75,61.74,48.55,58.75,3.76
31,Ossora,94,RU,1563590134,82,59.24,163.07,65.41,5.75
32,Arraial do Cabo,80,BR,1563590134,76,-22.97,-42.02,66.49,21.74
33,Puerto Ayora,62,EC,1563590134,92,-0.74,-90.35,69.01,3.0
34,Ribeira Grande,0,PT,1563590135,90,38.52,-28.7,72.61,14.27
35,Mataura,100,NZ,1563590135,97,-46.19,168.86,48.99,8.99
36,Haines Junction,49,CA,1563590136,59,60.75,-137.51,61.81,9.55
37,Lasa,0,CY,1563590136,83,34.92,32.53,73.4,5.82
38,Ugoofaaru,100,MV,1563590136,77,5.67,73.0,83.59,20.78
39,Thompson,75,CA,1563590137,67,55.74,-97.86,59.0,11.41
40,Hobart,75,AU,1563590137,54,-42.88,147.33,55.0,5.82
41,Busselton,48,AU,1563590138,98,-33.64,115.35,57.0,23.49
42,Sao Filipe,100,CV,1563590138,83,14.9,-24.5,74.41,17.49
43,De Aar,17,ZA,1563590139,81,-30.65,24.01,38.59,9.28
44,Severo-Kurilsk,100,RU,1563590139,93,50.68,156.12,47.77,6.35
45,Vao,0,EE,1563590140,91,59.1,26.19,57.67,6.26
46,Yellowknife,20,CA,1563590137,48,62.45,-114.38,66.2,5.82
47,Ushuaia,40,AR,1563590141,64,-54.81,-68.31,37.4,9.17
48,Tahe,100,CN,1563590141,99,52.34,124.71,65.77,3.51
49,Cherskiy,100,RU,1563589985,62,68.75,161.3,43.27,10.22
50,Praia,75,BR,1563590142,59,-20.25,-43.81,62.6,2.93
51,Svetlogorsk,40,RU,1563590142,77,53.14,59.15,68.0,4.47
52,Mount Gambier,0,AU,1563590143,51,-37.83,140.78,60.8,16.11
53,Baft,0,IR,1563590143,25,29.23,56.61,68.83,5.3
54,Victoria,75,BN,1563590143,70,5.28,115.24,89.6,3.36
55,Maxixe,0,MZ,1563590144,58,-23.86,35.35,64.51,13.49
56,Panjab,0,AF,1563590144,22,34.38,67.02,58.21,5.44
57,Ballina,68,IE,1563590145,93,54.11,-9.15,57.0,16.11
58,Honiara,40,SB,1563590145,66,-9.43,159.96,89.6,16.11
59,Vilyuysk,0,RU,1563590146,32,63.75,121.63,64.87,7.05
60,Jamestown,0,AU,1563590146,38,-33.21,138.6,62.89,20.76
61,Amga,0,RU,1563590146,35,60.89,131.98,60.01,6.73
62,Bluff,0,AU,1563590147,41,-23.58,149.07,69.37,13.2
63,Manggar,35,ID,1563590147,60,-2.88,108.27,88.09,9.06
64,Hasaki,75,JP,1563590147,78,35.73,140.83,86.0,5.82
65,El Alto,75,BO,1563590148,86,-16.5,-68.19,37.4,6.93
66,Fare,2,PF,1563590148,78,-16.7,-151.02,75.31,18.32
67,Talnakh,0,RU,1563590149,40,69.49,88.39,71.6,15.66
68,Tuktoyaktuk,90,CA,1563590149,87,69.44,-133.03,48.2,5.82
69,Mozarlandia,8,BR,1563590149,46,-14.74,-50.57,71.71,4.36
70,Shingu,75,JP,1563590150,79,33.72,135.99,84.2,9.17
71,Port Alfred,76,ZA,1563590150,95,-33.59,26.89,46.99,11.99
72,Tasiilaq,90,GL,1563590150,93,65.61,-37.64,42.8,6.93
73,Qaanaaq,100,GL,1563590151,89,77.48,-69.36,40.21,10.2
74,Ponta do Sol,0,BR,1563590151,73,-20.63,-46.0,52.81,6.69
75,Kangaatsiaq,57,GL,1563590151,90,68.31,-53.46,44.35,5.7
76,Kapaa,90,US,1563589874,70,22.08,-159.32,84.2,18.34
77,San Patricio,2,PY,1563590152,94,-26.98,-56.83,60.55,7.76
78,Carnarvon,16,ZA,1563590153,80,-30.97,22.13,34.99,8.68
79,Butaritari,91,KI,1563590153,64,3.07,172.79,85.75,7.81
80,Bahir Dar,46,ET,1563590154,93,11.59,37.39,56.23,2.53
81,Cayenne,0,GF,1563590154,100,4.94,-52.33,73.4,2.84
82,Onalaska,40,US,1563589921,70,43.88,-91.23,89.6,8.05
83,Nikolskoye,75,RU,1563590155,93,59.7,30.79,61.0,6.71
84,Port Elizabeth,1,US,1563590155,88,39.31,-74.98,87.01,5.12
85,Saint-Augustin,20,CA,1563590155,88,45.63,-73.98,82.4,6.93
86,Victoria,75,BN,1563590042,70,5.28,115.24,89.6,3.36
87,Husavik,0,CA,1563590156,50,50.56,-96.99,68.0,8.95
88,Didwana,11,IN,1563590156,48,27.4,74.58,91.87,9.53
89,Witney,75,GB,1563590000,93,51.78,-1.49,63.0,4.7
90,Povenets,97,RU,1563590157,73,62.85,34.83,54.07,9.04
91,Aswan,0,EG,1563590157,24,24.09,32.9,91.4,9.17
92,Saint-Joseph,75,FR,1563590158,82,43.56,6.97,73.4,3.36
93,Arlit,33,NE,1563590158,28,18.74,7.39,89.17,10.6
94,Sompeta,38,IN,1563590158,73,18.93,84.6,83.77,4.14
95,Krk,0,HR,1563590159,77,45.03,14.57,70.0,3.76
96,Vaini,75,IN,1563590149,94,15.34,74.49,71.6,3.36
97,Nsunga,86,TZ,1563590159,58,-1.13,31.39,67.39,2.33
98,Coquimbo,0,CL,1563590160,87,-29.95,-71.34,51.8,1.12
99,Bethel,90,US,1563590160,87,60.79,-161.76,60.8,17.22
100,Virginia Beach,40,US,1563589986,88,36.85,-75.98,88.0,10.78
101,Hofn,100,IS,1563590161,96,64.25,-15.21,39.31,13.56
102,Bilma,58,NE,1563590162,37,18.69,12.92,90.61,11.92
103,Souillac,0,FR,1563590162,82,45.6,-0.6,66.99,2.24
104,New Norfolk,75,AU,1563590162,54,-42.78,147.06,55.0,5.82
105,Maragogi,71,BR,1563590163,96,-9.01,-35.22,69.37,4.61
106,Erzin,40,TR,1563590163,24,36.95,36.2,79.0,19.46
107,Bundaberg,40,AU,1563590164,40,-24.87,152.35,75.99,16.11
108,Canakkale,0,TR,1563590164,88,40.15,26.41,68.0,4.7
109,Bonito,86,BR,1563590164,94,-1.36,-47.3,71.53,4.12
110,Castro,40,CL,1563590165,80,-42.48,-73.76,41.0,12.75
111,Dunedin,100,NZ,1563589917,97,-45.87,170.5,48.99,17.16
112,Nanortalik,99,GL,1563590166,98,60.14,-45.24,43.99,3.87
113,Ancud,40,CL,1563590166,80,-41.87,-73.83,41.0,12.75
114,Esperance,75,AU,1563590166,87,-33.86,121.89,51.8,23.04
115,Dingle,85,PH,1563590167,66,11.0,122.67,86.47,5.48
116,Kavieng,32,PG,1563590167,74,-2.57,150.8,83.95,11.56
117,Puerto Escondido,79,MX,1563590167,82,15.86,-97.07,79.09,3.65
118,Qasigiannguit,75,GL,1563590168,81,68.82,-51.19,48.2,6.98
119,Ambanja,0,MG,1563590168,75,-13.68,48.45,74.23,6.73
120,Saint-Georges,0,CA,1563590169,84,46.12,-70.67,75.99,1.99
121,Hof,93,DE,1563590169,88,50.32,11.92,60.01,4.38
122,Cabo San Lucas,40,MX,1563590037,40,22.89,-109.91,87.8,11.41
123,Nelson,41,CA,1563590117,61,49.49,-117.29,53.35,3.78
124,Maldonado,0,UY,1563590170,93,-34.91,-54.96,51.8,5.82
125,Zonguldak,0,TR,1563590170,70,41.25,31.83,73.15,11.56
126,Lata,16,IN,1563590171,67,30.78,78.62,49.21,4.18
127,Senno,65,RU,1563590171,82,57.76,27.95,60.8,8.95
128,Lagoa,0,PT,1563590172,47,37.14,-8.45,78.8,4.7
129,Beringovskiy,100,RU,1563590172,71,63.05,179.32,59.83,4.12
130,Keti Bandar,3,PK,1563590173,80,24.14,67.45,81.79,9.08
131,Yarada,75,IN,1563590173,88,17.65,83.27,82.4,2.24
132,Pandan,100,PH,1563590173,71,11.72,122.09,85.75,11.03
133,Sao Joao da Barra,3,BR,1563590174,92,-21.64,-41.05,58.21,0.07
134,Shakawe,0,BW,1563590174,30,-18.36,21.84,49.75,2.33
135,Tres Arroyos,99,AR,1563590175,47,-38.38,-60.28,51.01,14.16
136,Ilulissat,75,GL,1563590175,81,69.22,-51.1,48.2,3.36
137,Mar del Plata,0,AR,1563590175,61,-46.43,-67.52,36.43,23.73
138,Aksu,90,KZ,1563590176,88,52.04,76.93,68.0,11.18
139,Sept-Iles,90,CA,1563590113,87,50.2,-66.38,59.0,5.82
140,Salalah,90,OM,1563590177,94,17.01,54.1,78.8,4.7
141,Kalawit,28,PH,1563590177,74,7.91,122.53,85.03,1.9
142,Leningradskiy,100,RU,1563590177,92,69.38,178.42,36.07,10.22
143,Teahupoo,20,PF,1563590178,57,-17.83,-149.27,80.6,6.93
144,Rosa Zarate,5,EC,1563590178,97,0.33,-79.47,70.45,2.66
145,Pierre,20,US,1563590178,74,44.37,-100.35,78.8,6.93
146,Meulaboh,100,ID,1563590147,81,4.14,96.13,79.99,7.99
147,Albany,1,US,1563590179,74,42.65,-73.75,84.0,9.17
148,Kirakira,53,SB,1563590180,81,-10.46,161.92,80.89,16.44
149,Opuwo,0,NA,1563590180,25,-18.06,13.84,53.53,6.38
150,Niquelandia,0,BR,1563590181,46,-14.47,-48.46,65.05,8.41
151,Pisco,90,PE,1563590181,87,-13.71,-76.2,59.0,12.75
152,Neyshabur,0,IR,1563590181,16,36.21,58.79,83.05,16.06
153,Bambous Virieux,20,MU,1563590182,77,-20.34,57.76,70.0,9.17
154,Ngunguru,100,NZ,1563590182,66,-35.62,174.5,62.01,5.99
155,Cumberland,1,US,1563590182,83,41.97,-71.43,82.0,5.82
156,Buala,37,SB,1563590183,73,-8.15,159.59,82.69,10.31
157,Manakara,0,MG,1563590183,95,-22.14,48.01,61.09,4.05
158,Klaksvik,77,FO,1563590183,100,62.23,-6.59,50.0,8.05
159,Arman,100,RU,1563590184,98,59.7,150.17,51.01,3.71
160,Rio Gallegos,40,AR,1563590184,80,-51.62,-69.22,33.8,14.99
161,Simao,100,CN,1563590185,91,22.76,100.79,75.49,2.66
162,East London,55,ZA,1563590185,63,-33.02,27.91,48.85,23.24
163,Margate,75,AU,1563590185,54,-43.03,147.26,55.0,5.82
164,Vila Velha,75,BR,1563590186,78,-3.71,-38.6,80.6,18.34
165,Mlowo,0,TZ,1563590186,86,-9.01,33.0,51.55,2.66
166,Camacha,75,PT,1563590186,83,33.08,-16.33,71.6,13.87
167,Quelimane,0,MZ,1563590187,93,-17.88,36.89,64.4,3.36
168,Dodoma,0,TZ,1563590187,92,-6.18,35.75,55.69,3.91
169,Tiksi,34,RU,1563590187,38,71.64,128.87,59.83,16.15
170,Jinchang,24,CN,1563590188,22,38.52,102.19,77.47,5.7
171,Kasongo,0,CD,1563590188,45,-4.43,26.67,71.17,2.19
172,Butka,75,RU,1563590189,93,56.72,63.78,70.45,6.11
173,Acapulco,90,MX,1563590189,70,16.86,-99.88,84.2,3.15
174,Avera,1,US,1563590189,94,33.19,-82.53,82.4,8.05
175,Nome,1,US,1563590190,88,30.04,-94.42,84.99,3.36
176,Olavarria,0,AR,1563590190,86,-36.89,-60.32,48.99,1.01
177,Sambava,0,MG,1563590190,85,-14.27,50.17,63.25,3.83
178,Show Low,20,US,1563590191,21,34.25,-110.03,87.8,12.75
179,Mutsu,75,JP,1563590191,83,41.29,141.2,77.0,8.05
180,Jalu,0,LY,1563590192,45,29.03,21.55,74.05,10.71
181,Finnsnes,3,NO,1563590192,93,69.23,17.98,53.6,10.29
182,Bandarbeyla,83,SO,1563590192,52,9.49,50.81,78.55,28.23
183,Klobuck,0,PL,1563590193,87,50.9,18.94,62.01,5.82
184,Sitka,0,US,1563590193,46,37.17,-99.65,90.0,10.0
185,Mehamn,0,NO,1563590193,81,71.03,27.85,53.53,7.67
186,Nizhniye Sergi,100,RU,1563590194,95,56.66,59.3,66.85,7.74
187,Harbour Breton,100,CA,1563590194,86,47.48,-55.8,56.05,15.14
188,Aguimes,40,ES,1563590195,73,27.91,-15.45,71.6,23.04
189,Pangnirtung,100,CA,1563590195,85,66.15,-65.72,51.55,0.27
190,Mahebourg,20,MU,1563590195,77,-20.41,57.7,70.0,9.17
191,Balsta,0,SE,1563590196,93,59.57,17.53,57.0,2.24
192,Kaitangata,100,NZ,1563590196,89,-46.28,169.85,50.0,8.01
193,Rodez,0,FR,1563590197,55,44.35,2.57,68.0,9.17
194,Jacareacanga,8,BR,1563590197,66,-6.22,-57.76,76.39,1.05
195,Hamilton,75,CA,1563590022,100,43.26,-79.87,82.99,5.82
196,Cap Malheureux,20,MU,1563590198,77,-19.98,57.61,70.0,9.17
197,Katsuura,75,JP,1563590198,94,33.93,134.5,80.01,19.46
198,Yulara,0,AU,1563590199,16,-25.24,130.99,69.8,13.87
199,Inhambane,0,MZ,1563590199,58,-23.87,35.38,64.51,13.49
200,Saint George,0,GR,1563590199,82,39.45,22.34,73.0,1.3
201,Bria,100,CF,1563590200,97,6.54,21.99,67.57,2.3
202,Brookhaven,1,US,1563590200,83,40.78,-72.92,82.0,5.82
203,Clyde River,1,CA,1563590201,93,70.47,-68.59,44.6,3.36
204,Almaznyy,0,RU,1563590201,82,48.03,40.04,55.4,8.95
205,Namibe,0,AO,1563590201,85,-15.19,12.15,68.11,1.34
206,Kruisfontein,91,ZA,1563590202,77,-34.0,24.73,47.23,22.44
207,Kudahuvadhoo,66,MV,1563590202,74,2.67,72.89,83.95,17.22
208,Fairbanks,75,US,1563590166,52,64.84,-147.72,68.0,4.7
209,Luba,100,PH,1563590203,75,17.32,120.7,84.49,8.21
210,Kavaratti,100,IN,1563590203,77,10.57,72.64,82.69,26.4
211,Komsomolets,0,RU,1563590204,88,52.77,41.29,58.03,10.04
212,Mirzapur,0,IN,1563590204,79,25.15,82.57,87.8,5.82
213,Saint-Pierre,0,FR,1563590204,77,48.95,4.24,60.8,9.17
214,Pampa,1,US,1563590205,31,35.54,-100.96,96.8,17.22
215,Sabha,0,LY,1563590205,29,27.03,14.43,79.27,12.88
216,Murgab,0,TM,1563589913,39,37.5,61.97,78.8,6.93
217,Yola,100,NG,1563590206,90,9.26,12.45,71.17,5.79
218,Broome,100,GB,1563590206,100,52.47,1.45,64.4,12.75
219,Cidreira,94,BR,1563590206,77,-30.17,-50.22,62.89,3.94
220,Honningsvag,0,NO,1563590207,82,70.98,25.97,52.45,10.92
221,Kahului,40,US,1563590181,61,20.89,-156.47,82.4,17.22
222,Ixtapa,90,MX,1563590207,100,20.71,-105.21,78.01,6.93
223,Longyearbyen,75,NO,1563590208,87,78.22,15.63,44.6,2.55
224,Villaviciosa,75,ES,1563590208,93,43.48,-5.43,66.0,3.36
225,Half Moon Bay,20,US,1563590208,82,37.46,-122.43,72.0,9.17
226,Northam,75,AU,1563590209,82,-31.65,116.67,55.4,4.7
227,Constantine,0,DZ,1563590209,52,36.36,6.61,69.8,2.24
228,Luganville,40,VU,1563590209,74,-15.51,167.18,78.8,6.93
229,Ostrovnoy,1,RU,1563590210,83,68.05,39.51,44.35,7.76
230,Tomatlan,100,MX,1563590210,82,19.93,-105.25,81.43,4.56
231,Venado Tuerto,0,AR,1563590210,95,-33.75,-61.97,46.99,5.37
232,Fuling,100,CN,1563590211,83,29.71,107.39,83.23,2.98
233,Guerrero Negro,0,MX,1563590211,84,27.97,-114.04,65.59,18.97
234,Aklavik,90,CA,1563590212,82,68.22,-135.01,59.0,11.41
235,Talara,12,PE,1563590052,89,-4.58,-81.27,63.25,16.75
236,Hambantota,75,LK,1563590212,74,6.12,81.12,82.4,21.92
237,Ayan,0,IR,1563590212,55,38.23,44.7,66.2,2.24
238,Dhar,75,IN,1563590213,83,22.6,75.31,78.8,4.7
239,Guarapari,75,BR,1563590213,93,-20.67,-40.5,62.6,3.36
240,Bud,0,NO,1563590214,93,62.91,6.91,53.6,4.7
241,Upernavik,100,GL,1563590214,94,72.79,-56.15,44.17,8.7
242,Beloha,0,MG,1563590214,87,-25.17,45.06,59.29,5.26
243,Nchelenge,3,ZM,1563590215,60,-9.35,28.74,58.21,9.13
244,Malanje,6,AO,1563590215,98,-9.54,16.35,54.97,3.2
245,Georgetown,20,GY,1563590182,100,6.8,-58.16,80.6,4.7
246,Scalea,0,IT,1563590216,92,39.82,15.79,66.0,1.99
247,Puerto Carreno,75,CO,1563590216,94,6.19,-67.49,77.0,2.73
248,Aldan,51,RU,1563590217,40,58.61,125.39,61.27,7.07
249,Chuy,0,UY,1563590155,95,-33.69,-53.46,55.87,5.91
250,Waipawa,100,NZ,1563590217,87,-39.94,176.59,52.0,7.0
251,Faya,0,SA,1563590218,21,18.39,42.45,73.4,3.36
252,Lebu,90,ET,1563590218,93,8.96,38.73,53.6,6.93
253,La Ronge,20,CA,1563590218,64,55.1,-105.3,68.0,16.11
254,Narsaq,22,GL,1563590219,81,60.91,-46.05,50.0,2.26
255,Gat,42,SN,1563590219,78,14.69,-16.54,73.4,5.82
256,Temple,1,US,1563590220,58,31.1,-97.34,89.6,13.87
257,Provideniya,95,RU,1563590220,81,64.42,-173.23,54.79,10.07
258,Baswa,14,IN,1563590221,45,27.15,76.58,93.49,4.59
259,Ryzdvyanyy,40,RU,1563590221,82,45.26,41.84,66.0,6.71
260,Torbay,20,CA,1563590221,81,47.66,-52.73,55.99,3.36
261,Cabedelo,75,BR,1563590222,100,-6.97,-34.84,73.4,4.7
262,Veraval,0,FR,1563590222,82,49.65,0.71,68.0,6.93
263,Surab,3,PK,1563590222,41,28.49,66.26,78.19,8.21
264,Vila,0,IT,1563590223,88,45.18,8.4,73.0,6.93
265,Pevek,100,RU,1563590223,96,69.7,170.27,31.57,9.51
266,Lichinga,0,MZ,1563590223,68,-13.3,35.25,58.93,3.22
267,Mizan Teferi,98,ET,1563590224,89,6.99,35.58,61.99,2.59
268,Plettenberg Bay,98,ZA,1563590224,81,-34.05,23.37,47.41,12.71
269,Lishui,1,CN,1563590224,57,28.45,119.91,92.23,0.67
270,Manokwari,2,ID,1563590225,71,-0.87,134.08,80.35,5.57
271,San Cristobal,9,HN,1563590225,90,14.68,-86.92,66.49,3.85
272,Angoche,0,MZ,1563590226,94,-16.23,39.91,63.25,4.18
273,Emirdag,0,TR,1563590226,69,39.02,31.15,59.29,3.69
274,Ciudad del Maiz,0,MX,1563590134,71,22.4,-99.6,72.43,7.25
275,Kununurra,0,AU,1563590227,18,-15.77,128.74,84.2,3.36
276,Faanui,10,PF,1563590227,79,-16.48,-151.75,76.39,19.06
277,Belyy Yar,40,RU,1563590228,93,53.6,91.39,62.6,6.71
278,Tuy Hoa,100,VN,1563590228,47,13.08,109.3,91.69,9.17
279,Port Augusta,0,AU,1563590228,29,-32.49,137.76,66.2,20.8
280,Zyryanka,100,RU,1563590229,47,65.73,150.89,53.17,10.02
281,Karatau,0,KZ,1563590229,24,43.18,70.46,85.03,17.4
282,Baghmara,0,IN,1563590230,65,23.8,86.21,85.39,6.82
283,Maceio,75,BR,1563590230,94,-9.67,-35.74,71.6,8.05
284,Mandal,0,MN,1563590230,69,48.82,106.5,69.01,3.36
285,Long Beach,75,US,1563590231,74,30.35,-89.15,86.0,8.05
286,Sinnamary,80,GF,1563590232,79,5.38,-52.96,80.71,10.2
287,Shaoyang,98,CN,1563590232,83,27.23,111.45,82.69,2.39
288,Snasa,15,NO,1563590233,94,64.25,12.38,49.75,1.52
289,Adrar,83,DZ,1563590233,14,27.87,-0.29,96.8,14.99
290,Bathsheba,40,BB,1563590233,78,13.22,-59.52,80.6,12.75
291,Ciudad Bolivar,53,VE,1563590205,87,8.12,-63.55,77.47,8.93
292,Yangambi,100,CD,1563590234,97,0.77,24.47,70.27,2.26
293,Kaduqli,100,SD,1563590234,81,11.01,29.72,74.23,2.84
294,Qazvin,0,IR,1563590235,72,36.28,50.01,64.4,10.0
295,Kawalu,100,ID,1563590236,91,-7.38,108.21,70.45,4.05
296,Alice Springs,35,AU,1563589982,14,-23.7,133.88,71.6,12.75
297,Port Lincoln,0,AU,1563590236,57,-34.72,135.86,61.99,28.88
298,Waddan,0,LY,1563590237,73,29.16,16.14,69.91,12.17
299,Rocha,0,UY,1563590237,94,-34.48,-54.34,53.89,4.74
300,Kutum,20,SD,1563590153,60,14.2,24.66,76.21,7.31
301,Aleysk,57,RU,1563590238,74,52.5,82.77,67.03,4.59
302,Along,14,IN,1563590238,67,28.17,94.8,72.07,5.08
303,Goderich,100,CA,1563590239,86,43.74,-81.71,80.01,7.0
304,Lalmohan,56,BD,1563590239,65,22.34,90.74,88.99,9.04
305,Ottawa,20,CA,1563590176,78,45.42,-75.69,81.0,6.93
306,Danielskuil,0,ZA,1563590240,96,-28.19,23.54,35.53,8.16
307,Rio Branco do Sul,90,BR,1563590240,93,-25.19,-49.31,55.99,4.7
308,Tigil,99,RU,1563590240,66,57.8,158.67,68.47,22.26
309,Prainha,33,BR,1563590241,81,-1.8,-53.48,74.95,3.11
310,Rakai,84,UG,1563590241,68,-0.71,31.4,66.49,2.55
311,Yagodnoye,100,RU,1563590242,93,62.52,149.63,39.13,7.43
312,Tiznit,78,MA,1563590242,94,29.7,-9.73,66.85,8.3
313,Palmer,0,AU,1563590243,42,-34.85,139.16,68.0,23.04
314,Surgut,0,RU,1563590243,78,61.25,73.4,73.4,4.47
315,Taranagar,0,IN,1563590243,56,28.67,75.04,89.35,4.21
316,Gao,100,ML,1563590244,45,16.28,-0.04,85.21,21.59
317,Itapaci,0,BR,1563590244,40,-14.95,-49.55,70.81,13.56
318,Ranong,75,TH,1563590244,100,9.96,98.62,78.8,3.36
319,Markivka,0,UA,1563590245,85,49.52,39.57,61.09,4.65
320,Kodiak,20,US,1563590245,62,39.95,-94.76,89.6,12.75
321,Moron,31,HT,1563590245,77,18.56,-74.26,80.89,3.53
322,Girardot,75,CO,1563590246,69,4.31,-74.8,75.2,5.82
323,Tabou,100,CI,1563590246,94,4.42,-7.36,73.15,6.11
324,Knysna,98,ZA,1563590247,81,-34.04,23.05,44.6,11.41
325,Norrtalje,0,SE,1563590247,93,59.76,18.7,55.99,2.24
326,Los Llanos de Aridane,90,ES,1563590247,64,28.66,-17.92,73.4,20.8
327,Byron Bay,1,AU,1563590248,55,-28.65,153.62,73.0,4.7
328,Airai,0,TL,1563590248,43,-8.93,125.41,84.31,4.32
329,Cape Coast,100,GH,1563590248,90,5.11,-1.24,75.49,11.43
330,Balkhash,0,KZ,1563590249,26,46.84,74.98,78.8,22.37
331,Honggang,67,CN,1563590249,64,29.51,114.87,87.19,4.65
332,Brae,100,GB,1563590250,93,60.4,-1.35,57.2,17.22
333,Santa Fe,0,AR,1563590040,83,-31.62,-60.7,61.0,5.01
334,Turtas,0,RU,1563590250,48,58.94,69.13,75.31,2.53
335,Fortuna,40,US,1563590251,67,40.6,-124.16,62.01,13.87
336,Saskylakh,98,RU,1563590251,35,71.97,114.09,69.73,15.59
337,Prince Rupert,90,CA,1563589991,82,54.32,-130.32,60.8,3.36
338,Bull Savanna,1,JM,1563590252,73,17.89,-77.59,84.13,8.99
339,Chodavaram,90,IN,1563590252,94,17.44,81.78,80.6,5.82
340,Grindavik,75,IS,1563590252,93,63.84,-22.43,53.01,10.29
341,Fukue,75,JP,1563590253,83,35.03,136.69,86.0,9.17
342,Tuatapere,100,NZ,1563590170,97,-46.13,167.69,48.99,8.99
343,Salinas,90,US,1563590253,72,36.67,-121.66,66.99,13.87
344,Amahai,66,ID,1563590254,86,-3.31,129.0,77.65,12.33
345,Lagunillas,100,VE,1563590254,75,8.5,-71.39,66.31,8.3
346,Perez,94,PH,1563590255,53,14.19,121.92,89.53,3.53
347,Constitucion,90,MX,1563590255,72,23.99,-104.67,62.6,7.14
348,Mocuba,0,MZ,1563590255,87,-16.84,36.99,61.09,5.21
349,Windsor,1,US,1563590088,61,42.3,-83.03,81.0,8.03
350,Kilinochchi,11,LK,1563590256,72,9.4,80.4,83.59,13.27
351,Port Hardy,75,CA,1563590257,77,50.7,-127.42,60.8,8.05
352,Sarakhs,0,TM,1563590257,34,36.54,61.16,80.6,10.49
353,Olinda,0,AU,1563590257,62,-37.84,145.39,63.0,23.04
354,Vila do Maio,75,CV,1563590258,73,15.13,-23.22,77.0,12.75
355,La Tuque,43,CA,1563590258,77,47.44,-72.79,67.21,2.62
356,Novobirilyussy,0,RU,1563590259,51,56.95,90.69,67.21,8.19
357,Nantucket,90,US,1563590259,94,41.28,-70.1,75.2,11.41
358,Kurilsk,100,RU,1563590259,89,45.23,147.88,58.21,4.74
359,Lavrentiya,100,RU,1563590260,70,65.58,-170.99,59.83,10.56
360,Great Bend,1,US,1563590260,48,38.36,-98.78,89.6,12.75
361,Chara,0,GR,1563590261,82,39.42,22.43,73.0,1.3
362,Lerwick,100,GB,1563590261,93,60.15,-1.15,57.2,9.17
363,Saint Anthony,1,US,1563590261,31,43.97,-111.68,75.2,16.11
364,Huarmey,0,PE,1563590262,88,-10.07,-78.15,61.81,10.02
365,Llata,0,PE,1563590262,94,-9.55,-76.82,33.19,2.01
366,Havelock,1,US,1563590074,74,34.88,-76.9,84.2,11.41
367,Ardesen,75,TR,1563590263,94,41.19,40.99,69.8,6.93
368,Boleslawiec,59,PL,1563590263,94,51.26,15.57,60.01,4.65
369,Leh,0,IN,1563590263,35,34.16,77.58,43.45,3.06
370,College,90,US,1563590264,46,64.86,-147.8,69.8,10.29
371,Zhangye,98,CN,1563590264,22,38.94,100.46,78.01,3.18
372,Realeza,33,BR,1563590264,94,-25.77,-53.53,55.69,3.36
373,Porto Novo,0,BR,1563590265,87,-23.68,-45.44,57.2,2.24
374,Hoopstad,0,ZA,1563590265,91,-27.83,25.91,38.59,8.05
375,Dongsheng,42,CN,1563590265,64,29.72,112.52,88.99,2.33
376,Komsomolskiy,25,RU,1563590266,74,67.55,63.78,62.17,7.45
377,Podor,12,MR,1563590266,62,16.65,-14.96,78.91,11.01
378,Broken Hill,0,AU,1563590267,29,-31.97,141.45,62.6,19.46
379,Port Hedland,24,AU,1563590267,26,-20.31,118.58,78.8,5.82
380,Siocon,96,PH,1563590268,69,11.03,124.04,86.83,2.46
381,Klyuchi,100,RU,1563590268,87,52.25,79.17,66.31,6.2
382,Vila Franca do Campo,75,PT,1563590269,100,37.72,-25.43,69.8,10.29
383,Safford,1,US,1563590269,14,32.83,-109.71,98.6,18.34
384,Gavle,19,SE,1563590269,94,60.67,17.14,55.0,1.57
385,Vestmanna,70,FO,1563590270,100,62.16,-7.17,50.0,8.05
386,Hvide Sande,100,DK,1563590270,93,56.01,8.13,59.0,4.7
387,Beidao,10,CN,1563590270,49,34.57,105.89,73.69,3.15
388,Lompoc,40,US,1563590104,77,34.64,-120.46,66.99,11.41
389,Sao Miguel do Araguaia,2,BR,1563590271,40,-13.28,-50.16,74.41,7.14
390,Norman Wells,75,CA,1563590271,39,65.28,-126.83,80.6,4.7
391,Waingapu,8,ID,1563590272,57,-9.65,120.26,81.97,12.15
392,Corinth,20,GR,1563590272,49,37.94,22.93,77.0,5.82
393,Ketchikan,40,US,1563590142,63,55.34,-131.65,64.4,13.87
394,Oistins,40,BB,1563590273,78,13.07,-59.53,80.6,12.75
395,Kirensk,15,RU,1563590273,40,57.78,108.12,68.65,15.79
396,Kieta,100,PG,1563590273,82,-6.22,155.63,78.91,7.87
397,Daru,81,PG,1563590274,66,-9.07,143.21,79.45,11.5
398,Akcakoca,0,TR,1563590274,84,41.09,31.12,61.99,1.9
399,Kill,75,IE,1563590274,100,53.25,-6.59,59.0,8.05
400,Bela,3,PK,1563590275,70,26.23,66.31,79.81,5.41
401,Balkanabat,0,TM,1563590275,61,39.51,54.36,82.33,9.31
402,Qostanay,75,KZ,1563590089,47,53.17,63.58,77.0,9.35
403,Vagur,100,FO,1563590276,92,61.47,-6.81,50.83,13.2
404,Te Anau,99,NZ,1563590276,82,-45.41,167.72,44.53,4.74
405,Touros,75,BR,1563590277,94,-5.2,-35.46,73.4,9.17
406,Champerico,90,MX,1563590277,77,16.38,-93.6,69.8,23.04
407,Geraldton,75,CA,1563590277,60,49.72,-86.95,73.4,9.17
408,Matara,20,BI,1563590278,88,-3.48,29.48,49.93,2.73
409,Piritiba,55,BR,1563590279,98,-11.73,-40.56,59.47,5.46
410,Tabora,20,TZ,1563590279,77,-5.02,32.81,62.6,5.82
411,Turka,100,RU,1563590279,94,52.95,108.22,46.87,3.2
412,Codrington,0,AU,1563590280,52,-28.95,153.24,66.2,4.7
413,Trincomalee,40,LK,1563590280,52,8.58,81.23,87.37,10.87
414,Isiro,97,CD,1563590280,99,2.77,27.62,65.95,0.69
415,Nemuro,75,JP,1563590281,100,43.32,145.57,64.4,4.7
416,Isangel,75,VU,1563590281,50,-19.55,169.27,78.8,13.87
417,Jubbal,75,IN,1563590282,83,31.11,77.67,69.8,2.93
418,Mizdah,0,LY,1563590282,70,31.45,12.98,66.31,7.29
419,Maniitsoq,100,GL,1563590283,92,65.42,-52.9,43.09,5.91
420,Vestmannaeyjar,37,IS,1563590283,86,63.44,-20.27,52.63,8.28
421,Bilokurakyne,0,UA,1563590283,86,49.53,38.74,60.91,3.65
422,Yar-Sale,94,RU,1563589986,58,66.83,70.83,73.69,3.58
423,Tura,0,RU,1563590284,37,64.27,100.22,64.33,13.91
424,Iqaluit,75,CA,1563590262,93,63.75,-68.52,42.8,9.17
425,Plyussa,100,RU,1563590284,98,58.42,29.37,57.13,8.3
426,Kushikino,75,JP,1563590285,74,31.72,130.27,82.4,11.41
427,Nabire,56,ID,1563590285,60,-3.36,135.5,85.21,3.98
428,Morant Bay,20,JM,1563590286,58,17.88,-76.41,86.0,14.99
429,Vaitape,10,PF,1563590286,79,-16.52,-151.75,76.39,19.06
430,Tanabe,75,JP,1563590287,79,33.73,135.39,84.2,9.17
431,Astara,40,AZ,1563590287,50,38.42,48.87,77.0,6.93
432,Pangai,75,TO,1563590287,78,-19.8,-174.35,80.6,10.29
433,Altamira,0,BR,1563590288,77,-3.2,-52.21,72.43,2.73
434,Matay,0,EG,1563590288,66,28.42,30.79,74.59,13.49
435,Comodoro Rivadavia,0,AR,1563590289,48,-45.87,-67.48,44.6,19.46
436,Atasu,0,KZ,1563590289,34,48.68,71.64,77.47,7.58
437,Taoudenni,0,ML,1563590289,14,22.68,-3.98,94.75,11.97
438,Isabela,46,PH,1563590290,74,10.2,122.99,83.05,5.5
439,Mandalgovi,0,MN,1563590290,30,45.76,106.27,77.29,7.76
440,Gondanglegi,94,ID,1563590290,60,-7.75,112.01,84.49,10.51
441,Edd,33,ER,1563590291,45,13.93,41.69,85.93,0.27
442,Lazaro Cardenas,40,MX,1563590291,25,28.39,-105.62,87.8,6.93
443,Zhigansk,53,RU,1563590240,39,66.77,123.37,62.71,14.58
444,Mayumba,19,GA,1563590292,91,-3.44,10.65,70.99,3.2
445,Altay,7,CN,1563590292,45,47.83,88.13,63.61,5.95
446,Nouadhibou,0,MR,1563590292,77,20.93,-17.03,68.0,20.8
447,Glossa,20,GR,1563590293,73,35.47,23.78,78.01,4.7
448,Poiares,0,PT,1563590293,58,41.06,-6.86,67.03,2.42
449,Itarema,11,BR,1563590294,86,-2.92,-39.92,74.41,6.98
450,Neiafu,75,TO,1563590294,83,-18.65,-173.98,80.6,4.7
451,Okhotsk,0,RU,1563590294,36,59.36,143.24,69.73,17.96
452,Pittsburg,1,US,1563590268,52,38.02,-121.89,75.2,17.22
453,Monastyrshchina,0,RU,1563590295,91,54.35,31.84,52.99,9.26
454,Zelenogorskiy,90,RU,1563590296,100,55.03,87.0,64.4,6.71
455,Qaqortoq,22,GL,1563590296,81,60.72,-46.03,50.0,2.26
456,Esil,4,KZ,1563590296,39,51.96,66.41,82.33,4.07
457,Jijiga,68,ET,1563590297,90,9.35,42.8,56.77,7.43
458,Port Macquarie,0,AU,1563590297,37,-31.43,152.91,69.01,5.82
459,Awbari,0,LY,1563590298,25,26.59,12.77,78.73,10.04
460,Bayir,0,TR,1563590298,72,37.27,28.22,68.0,2.24
461,Kungurtug,0,RU,1563590298,48,50.6,97.53,66.13,4.45
462,Viedma,92,AR,1563590299,51,-40.81,-62.99,47.77,13.06
463,Saldanha,0,PT,1563590299,77,41.42,-6.55,63.61,2.71
464,Nyaunglebin,81,MM,1563590300,75,17.95,96.73,85.03,3.15
465,Ambovombe,0,MG,1563590300,76,-25.18,46.09,68.11,10.74
466,Santa Maria,0,BR,1563590301,63,-16.02,-48.01,60.8,8.05
467,Lugovoy,1,RU,1563590301,77,59.72,65.88,72.43,6.44
468,Ibra,0,OM,1563590301,49,22.69,58.55,85.21,3.96
469,Bonthe,100,SL,1563590302,91,7.53,-12.5,74.95,8.03
470,Polovinnoye,79,RU,1563590302,68,54.79,65.99,72.43,3.76
471,Rio Cuarto,0,AR,1563590302,66,-33.13,-64.35,48.2,5.82
472,Ulladulla,0,AU,1563590303,45,-35.36,150.48,64.99,10.29
473,Goure,100,NE,1563590303,49,13.98,10.27,83.95,8.5
474,Atar,0,MR,1563590304,17,20.52,-13.05,88.45,3.85
475,Poum,0,MK,1563590304,87,41.28,20.71,53.6,3.36
476,Amuntai,0,ID,1563590304,48,-2.42,115.25,94.57,0.47
477,Charters Towers,0,AU,1563590305,34,-20.07,146.27,68.65,9.91
478,Suntar,0,RU,1563590305,39,62.16,117.65,65.05,7.92
479,Oussouye,100,SN,1563590305,79,12.49,-16.54,76.39,12.12
480,Jawhar,34,IN,1563590306,80,19.91,73.23,81.79,2.8
481,Coihueco,100,CL,1563590306,93,-36.63,-71.83,46.4,3.36
482,Villa Carlos Paz,0,AR,1563590306,66,-31.42,-64.5,55.99,9.17
483,Kiunga,100,PG,1563590307,92,-6.12,141.3,74.77,2.98
484,Port Hawkesbury,75,CA,1563590307,59,45.62,-61.36,64.4,3.36
485,Deputatskiy,95,RU,1563590308,52,69.3,139.9,47.05,2.68
486,Marsabit,0,KE,1563590308,61,2.34,37.99,72.07,15.01
487,Jennings,0,AU,1563590308,49,-28.93,151.93,57.99,1.01
488,Wanning,35,AT,1563590309,77,48.64,13.53,64.0,1.12
489,Marawi,28,PH,1563590309,77,8.0,124.29,84.99,5.01
490,Magole,35,TZ,1563590309,96,-6.37,37.37,54.97,1.01
491,Charyshskoye,46,RU,1563590310,81,51.4,83.56,63.61,3.58
492,Flin Flon,40,CA,1563590310,74,54.77,-101.88,60.37,9.86
493,Rio Grande,98,BR,1563590025,93,-32.03,-52.1,60.01,4.7
494,Melito di Porto Salvo,20,IT,1563590311,73,37.92,15.77,75.2,2.24
495,Alindao,100,CF,1563590311,94,5.04,21.21,68.11,5.77
496,San Quintin,100,PH,1563590311,75,17.54,120.52,84.49,8.21
497,Zhuanghe,8,CN,1563590312,61,39.7,122.97,85.39,11.83
498,Nuzvid,90,IN,1563590312,94,16.79,80.85,78.8,5.82
499,Raudeberg,44,NO,1563590312,93,61.99,5.14,55.4,5.82
500,Amapa,90,HN,1563590313,88,15.09,-87.97,80.6,8.05
501,Okha,100,RU,1563590313,92,53.59,142.95,60.91,5.46
502,Predivinsk,0,RU,1563590313,52,57.07,93.44,64.51,10.16
503,Hay River,40,CA,1563590314,63,60.82,-115.79,60.8,6.93
504,Santiago,100,PH,1563590043,61,16.69,121.54,87.73,4.09
505,Bintulu,75,MY,1563590107,74,3.17,113.03,87.8,3.36
506,Korsakovo,4,RU,1563590315,90,53.27,37.36,53.89,9.91
507,Angren,0,UZ,1563590315,13,41.01,70.08,85.39,4.09
508,Tutoia,68,BR,1563590315,91,-2.76,-42.27,71.53,0.94
509,Kodinsk,100,RU,1563590316,77,58.6,99.18,54.61,12.01
510,Massakory,100,TD,1563590316,72,13.0,15.73,80.71,7.63
511,Flinders,0,AU,1563590316,45,-34.58,150.85,64.99,10.29
512,Zhuhai,40,CN,1563590317,73,40.71,112.04,73.4,4.47
513,Takoradi,100,GH,1563590317,91,4.89,-1.75,74.05,5.82
514,Atbasar,60,KZ,1563590317,51,51.81,68.36,78.01,4.29
515,Lorengau,49,PG,1563590318,80,-2.02,147.27,82.69,10.71
516,Santa Rosa,31,AR,1563590245,49,-36.62,-64.29,49.21,6.29
517,Zheleznodorozhnyy,90,RU,1563590319,87,55.75,38.0,60.8,6.71
518,Krasnokamensk,99,RU,1563590319,62,50.1,118.04,75.85,8.75
519,Namatanai,81,PG,1563590319,80,-3.66,152.44,81.25,14.85
520,Gushikawa,90,JP,1563590320,74,26.35,127.87,87.8,19.46
521,Lufilufi,75,WS,1563590320,74,-13.87,-171.6,84.2,4.7
522,Nanning,40,CN,1563590321,74,22.83,108.3,86.0,2.24
523,Hirna,24,ET,1563590321,89,9.22,41.1,56.59,1.32
524,Ust-Koksa,79,RU,1563590322,67,50.27,85.62,58.39,2.77
525,Chernyshevskiy,0,RU,1563590322,37,63.01,112.47,64.15,10.69
526,Batticaloa,86,LK,1563590322,51,7.71,81.69,87.19,14.34
527,Tual,7,ID,1563590323,85,-5.67,132.75,77.83,18.39
528,Libato,93,PH,1563590323,76,13.82,121.33,88.0,1.99
529,Nizhniy Kuranakh,51,RU,1563590323,40,58.84,125.49,61.27,7.07
530,Gewane,16,ET,1563590324,48,10.16,40.66,82.15,9.33
531,Marsh Harbour,11,BS,1563590324,72,26.54,-77.06,84.49,11.9
532,Yangjiang,28,CN,1563590324,67,21.85,111.96,91.0,4.34
